     3.03           OBSERVATION DATA    M: MIXED            RINEX VERSION / TYPE
GR30 V4.30          General Command of M20181231 235945 UTC PGM / RUN BY / DATE
SNR is mapped to RINEX snr flag value [1-9]                 COMMENT
LX:     < 12dBHz -> 1; 12-17dBHz -> 2; 18-23dBHz -> 3       COMMENT
       24-29dBHz -> 4; 30-35dBHz -> 5; 36-41dBHz -> 6       COMMENT
       42-47dBHz -> 7; 48-53dBHz -> 8; >= 54dBHz -> 9       COMMENT
ANKR                                                        MARKER NAME
20805M002                                                   MARKER NUMBER
Geodesy             General Command of Mapping              OBSERVER / AGENCY
1705608             LEICA GR30          4.30/7.402          REC # / TYPE / VERS
19353039            LEIAR10         NONE                    ANT # / TYPE
  4121934.2600  2652189.8120  4069034.9110                  APPROX POSITION XYZ
        0.0700        0.0000        0.0000                  ANTENNA: DELTA H/E/N
G   12 C1C L1C S1C C2S L2S S2S C2W L2W S2W C5Q L5Q S5Q      SYS / # / OBS TYPES
R    9 C1C L1C S1C C2P L2P S2P C2C L2C S2C                  SYS / # / OBS TYPES
E   12 C1C L1C S1C C5Q L5Q S5Q C7Q L7Q S7Q C8Q L8Q S8Q      SYS / # / OBS TYPES
C    6 C2I L2I S2I C7I L7I S7I                              SYS / # / OBS TYPES
J    9 C1C L1C S1C C2S L2S S2S C5Q L5Q S5Q                  SYS / # / OBS TYPES
S    3 C1C L1C S1C                                          SYS / # / OBS TYPES
DBHZ                                                        SIGNAL STRENGTH UNIT
    30.000                                                  INTERVAL
  2019    01    01    00    00    0.0000000     GPS         TIME OF FIRST OBS
  2019    01    01    23    59   30.0000000     GPS         TIME OF LAST OBS
     0                                                      RCV CLOCK OFFS APPL
G L2S -0.25000                                              SYS / PHASE SHIFT
G L2X -0.25000                                              SYS / PHASE SHIFT
R L2P  0.25000                                              SYS / PHASE SHIFT
R L3Q -0.25000                                              SYS / PHASE SHIFT
E L8Q -0.25000                                              SYS / PHASE SHIFT
 24 R01  1 R02 -4 R03  5 R04  6 R05  1 R06 -4 R07  5 R08  6 GLONASS SLOT / FRQ #
    R09 -2 R10 -7 R11  0 R12 -1 R13 -2 R14 -7 R15  0 R16 -1 GLONASS SLOT / FRQ #
    R17  4 R18 -3 R19  3 R20  2 R21  4 R22 -3 R23  3 R24  2 GLONASS SLOT / FRQ #
 C1C  -71.940 C1P  -71.940 C2C  -71.940 C2P  -71.940        GLONASS COD/PHS/BIS
    18    18  1929     7                                    LEAP SECONDS
                                                            END OF HEADER
> 2019 01 01 00 00  0.0000000  0 36
G05  24629365.690   129428186.97507        43.050    24629363.721   100853125.87506        41.700    24629363.109   100853123.86606        38.200
G10  24236779.506   127365142.69406        41.700    24236778.475    99245552.47106        40.300    24236778.301    99245547.45306        37.800    24236778.337    95110324.78607        44.750
G13  25601153.579   134534972.34906        39.300                                                    25601152.450   104832442.07506        37.300
G15  24640600.604   129487221.08207        45.350    24640599.385   100899133.99007        43.500    24640598.859   100899128.99706        41.450
G16  22541705.873   118457467.15408        48.250                                                    22541703.188    92304508.55406        41.800
G20  21910896.318   115142539.26008        48.000                                                    21910893.788    89721450.01407        44.750
G21  20940391.260   110042499.29308        49.400                                                    20940388.365    85747390.25408        49.100
G25  24756454.744   130096043.51307        43.400    24756455.774   101373542.57107        42.650    24756455.105   101373537.57806        40.800    24756456.498    97149649.59207        46.200
G26  21194873.061   111379810.24108        52.000    21194874.377    86789464.41708        50.250    21194874.233    86789460.41608        48.400    21194873.365    83173236.12008        53.100
G27  25242714.289   132651357.08506        39.750    25242716.301   103364698.20406        37.850    25242715.871   103364699.21106        36.600    25242716.492    99057826.22206        40.900
G29  21656561.384   113805994.94808        51.300    21656559.998    88679991.34107        46.850    21656559.469    88679987.34607        44.600
G31  24684084.402   129715735.97707        42.850    24684082.654   101077187.49906        41.350    24684082.048   101077185.48906        37.850
R03  21882098.264   117136587.36507        45.350    21882096.950    91106238.87507        44.350    21882096.933    91106232.87807        44.800
R04  21152913.079   113272890.18007        46.850    21152911.690    88101135.58107        46.900    21152911.738    88101128.58507        47.200
R05  23632354.523   126328478.55106        37.000    23632353.695    98255487.45507        43.100    23632353.756    98255489.45007        43.300
R09  20945254.183   111846487.04408        48.850    20945253.077    86991720.00507        47.300    20945253.052    86991712.00708        48.250
R10  21212986.809   113077156.47508        48.750    21212989.934    87948898.75606        39.750    21212990.604    87948908.75206        40.100
R18  22896681.347   122224036.47607        43.150    22896682.696    95063131.71907        42.350    22896682.663    95063145.72007        42.800
R19  20172823.632   107911004.40907        45.650    20172821.979    83930777.12307        44.950    20172822.254    83930780.12107        45.700
R20  21425126.205   114569779.30207        42.950    21425127.390    89109830.84607        46.150    21425128.333    89109832.84307        46.500
E02  25530745.765   134164973.44748        48.350    25530747.412   100188132.75108        48.400    25530744.828   102801731.37307        45.800    25530745.822   101494931.18608        48.650
E04  28338700.156   148920874.39846        41.700    28338700.448   111207148.96007        43.350    28338698.417   114108195.07407        43.200    28338699.208   112657670.63707        44.750
E05  26885286.909   141283141.40147        44.550    26885290.732   105503655.32607        44.300    26885288.533   108255909.63607        42.800    26885288.784   106879782.60307        45.200
E09  24387426.779   128156792.69947        46.250    24387429.492    95701508.04807        46.400    24387427.317    98198065.26607        44.850    24387427.778    96949785.27707        47.150
E11  26954968.140   141649313.74146        39.850    26954967.836   105777079.72306        40.400    26954965.842   108536467.96906        36.850    26954966.599   107156776.46506        40.250
E27  26926599.428   141500238.32147        44.850    26926602.097   105665773.22807        44.850    26926599.543   108422264.61507        42.700    26926600.320   107044013.04507        45.350
E30  23000359.504   120867702.08948        50.950    23000361.888    90258355.91008        50.600    23000359.196    92612914.86807        47.900    23000360.194    91435634.51208        50.750
C02  39449832.062   205425623.76106        38.000    39449823.925   158848099.01306        41.050
C05  37920184.667   197460352.02306        41.750    37920178.955   152688858.09807        42.350
C06  39893445.912   207735638.44506        39.200    39893439.846   160634360.53906        39.550
C09  39931359.846   207933074.19506        39.000    39931357.682   160787035.34506        40.700
C13  39350603.683   204908923.72506        40.650    39350605.136   158448577.51706        39.450
C16  39593321.702   206172820.32606        41.900    39593320.412   159425898.22706        39.150
J01  43952451.377   230971692.61306        40.050    43952449.693   179977932.15306        41.500    43952452.447   172478864.05206        41.950
S23  37495767.250   197041587.48607        47.900
S36  38121681.619   200330782.65607        47.550
> 2019 01 01 00 00 30.0000000  0 37
G05  24648030.782   129526272.96107        43.000    24648028.807   100929556.56206        41.950    24648028.190   100929554.54806        40.550
G10  24215620.259   127253950.26906        41.100    24215619.170    99158909.03906        40.600    24215619.001    99158904.04606        38.750    24215619.058    95027291.53507        43.600
G13  25590859.536   134480877.07706        40.650                                                    25590858.361   104790289.95506        36.400
G15  24626982.265   129415656.09307        45.850    24626981.020   100843369.05607        44.050    24626980.504   100843364.05406        41.200
G16  22526864.996   118379477.85907        47.800                                                    22526862.294    92243737.68907        42.650
G20  21893508.586   115051166.12708        48.100                                                    21893506.065    89650250.16107        43.700
G21  20942064.736   110051293.54508        49.100                                                    20942061.823    85754242.94108        49.000
G25  24778194.202   130210285.28907        44.200    24778195.227   101462562.17707        42.550    24778194.552   101462557.18106        40.750    24778195.932    97234960.03207        45.400
G26  21189342.877   111350748.90608        51.850    21189344.193    86766819.21108        50.000    21189344.046    86766815.21108        48.100    21189343.184    83151534.46708        52.450
G27  25225143.343   132559020.84306        37.650    25225145.178   103292747.93606        37.800    25225144.595   103292748.92806        36.900    25225145.710    98988873.84306        41.700
G29  21667278.516   113862313.86608        50.700    21667277.131    88723876.20207        46.850    21667276.597    88723872.21007        45.250
G31  24699405.020   129796246.71107        43.250    24699403.322   101139923.14906        40.400    24699402.729   101139921.16106        37.100
R03  21888767.745   117172289.66007        45.450    21888766.401    91134007.33307        44.550    21888766.387    91134001.33407        45.250
R04  21138208.981   113194150.48807        47.750    21138207.600    88039893.61307        47.000    21138207.643    88039886.61607        47.350
R05  23607953.686   126198042.43206        39.000    23607952.929    98154037.13607        44.200    23607952.990    98154039.13007        44.550
R09  20960187.321   111926229.11808        49.150    20960186.207    87053741.61207        47.250    20960186.181    87053733.61008        48.250
R10  21208107.147   113051145.09708        49.000    21208110.231    87928667.68906        40.050    21208110.904    87928677.68806        40.600
R11  24698092.656   131979111.04116        36.900    24698090.170   102650415.01116        36.150    24698089.853   102650410.01116        37.200
R18  22911324.369   122302201.87107        43.000    22911325.705    95123927.00407        42.400    22911325.679    95123941.00307        43.250
R19  20177548.978   107936281.78607        45.750    20177547.313    83950437.30607        44.850    20177547.592    83950440.30307        45.650
R20  21414386.168   114512347.59707        43.250    21414387.347    89065161.75507        45.700    21414388.291    89065163.75607        45.700
E02  25546714.126   134248887.78148        48.250    25546715.787   100250796.04607        47.700    25546713.204   102866029.36007        46.100    25546714.198   101558411.82408        48.050
E04  28345334.137   148955736.20347        42.300    28345334.449   111233182.12407        42.300    28345332.471   114134907.36307        43.150    28345333.197   112684043.36207        44.000
E05  26870087.509   141203267.97547        43.650    26870091.286   105444009.57507        44.200    26870089.091   108194707.91907        42.750    26870089.400   106819358.86007        44.750
E09  24381431.548   128125287.58747        46.200    24381434.228    95677981.52407        45.850    24381432.051    98173924.99907        44.900    24381432.541    96925951.88107        46.600
E11  26967368.675   141714478.91446        39.800    26967368.371   105825742.06806        40.750    26967366.328   108586399.73106        38.150    26967367.100   107206073.51906        40.750
E27  26915205.954   141440365.29547        44.800    26915208.622   105621062.85807        44.350    26915206.067   108376387.90007        42.750    26915206.866   106998719.49907        44.750
E30  23002978.810   120881466.67348        50.800    23002981.211    90268634.65708        49.850    23002978.512    92623461.75807        47.850    23002979.507    91446047.32808        50.150
C02  39449811.592   205425517.27406        38.050    39449803.445   158848016.70006        40.750
C05  37920194.196   197460401.66506        41.900    37920188.484   152688896.49007        42.850
C06  39885200.032   207692700.08606        39.500    39885193.964   160601157.89306        39.800
C09  39920324.769   207875611.52106        39.200    39920322.563   160742601.56306        40.350
C13  39353969.115   204926448.45306        40.850    39353970.572   158462128.74206        39.700
C16  39583939.473   206123964.71906        41.950    39583938.231   159388119.97606        39.000
J01  43953720.774   230978363.40806        40.100    43953719.106   179983130.17806        41.150    43953721.876   172483845.50506        41.250
S23  37495754.981   197041522.72207        47.750
S36  38121690.022   200330826.18207        47.350
> 2019 01 01 00 01  0.0000000  0 37
G05  24666744.874   129624616.40207        44.350    24666742.895   101006187.84106        41.550    24666742.276   101006185.83306        39.200
G10  24194471.581   127142813.19306        41.700    24194470.454    99072308.71306        41.950    24194470.286    99072303.72406        36.850    24194470.351    94944299.55707        43.650
G13  25580624.630   134427092.32606        41.300                                                    25580623.380   104748379.77506        37.050
G15  24613401.343   129344287.86907        44.600    24613400.078   100787757.47007        43.800    24613399.582   100787752.47106        40.950
G16  22512097.446   118301873.89507        47.700                                                    22512094.732    92183267.07507        42.650
G20  21876179.893   114960103.27007        47.250                                                    21876177.369    89579292.09307        44.150
G21  20943787.307   110060345.74608        48.750                                                    20943784.381    85761296.61308        48.800
G25  24799943.696   130324579.67407        42.850    24799944.722   101551622.74207        42.250    24799944.040   101551617.74406        41.150    24799945.410    97320309.72507        45.250
G26  21183917.901   111322240.45208        51.650    21183919.209    86744604.83208        49.700    21183919.059    86744600.83207        47.600    21183918.205    83130245.67908        52.950
G27  25207565.806   132466650.25106        38.650    25207567.466   103220770.90506        37.550    25207566.759   103220771.91906        36.100    25207568.263    98919895.82407        42.450
G29  21678042.387   113918878.46008        50.650    21678041.015    88767952.50407        47.150    21678040.476    88767948.51307        44.900
G31  24714739.220   129876828.54707        42.100    24714737.580   101202714.19306        40.350    24714736.982   101202712.18306        38.950
R03  21895578.734   117208749.51107        45.550    21895577.367    91162365.00707        44.300    21895577.354    91162359.01207        44.950
R04  21123614.988   113116000.33707        47.350    21123613.606    87979110.16707        47.050    21123613.646    87979103.17307        47.250
R05  23583550.615   126067594.65806        37.250    23583549.910    98052577.80607        43.150    23583549.977    98052579.81007        43.200
R09  20975232.315   112006568.40108        48.650    20975231.194    87116227.68307        46.950    20975231.169    87116219.68607        47.850
R10  21203380.059   113025946.91508        49.000    21203383.100    87909069.09706        39.400    21203383.772    87909079.09406        39.950
R11  24677782.131   131870582.27206        36.600    24677780.884   102566003.67705        35.600    24677780.448   102565998.67606        36.250
R18  22925976.329   122380415.07606        41.600    22925977.647    95184759.48807        42.700    22925977.628    95184773.49007        43.300
R19  20182313.918   107961770.96007        45.600    20182312.241    83970262.21707        44.850    20182312.522    83970265.21607        45.700
R20  21403676.494   114455078.34607        43.550    21403677.671    89020619.02907        45.800    21403678.616    89020621.03207        45.850
E02  25562719.314   134332995.64948        48.250    25562720.990   100313603.86508        48.050    25562718.414   102930475.65607        46.250    25562719.404   101622038.88308        48.750
E04  28352038.773   148990969.29447        42.400    28352039.083   111259492.55007        43.250    28352037.175   114161904.15007        43.750    28352037.833   112710696.97107        44.950
E05  26854902.015   141123467.68147        43.050    26854905.728   105384418.46607        44.600    26854903.528   108133562.22507        43.200    26854903.902   106758990.46607        45.550
E09  24375506.928   128094153.48847        45.800    24375509.579    95654732.04107        46.350    24375507.403    98150069.00807        45.200    24375507.918    96902399.14607        47.350
E11  26979762.044   141779606.44946        39.050    26979761.752   105874376.25706        39.000    26979759.669   108636302.64406        36.600    26979760.438   107255342.07806        39.350
E27  26903873.145   141380811.09547        44.300    26903875.805   105576590.58407        45.250    26903873.250   108330755.48707        43.200    26903874.076   106953667.15707        45.950
E30  23005682.468   120895674.52548        50.600    23005684.883    90279244.42108        50.150    23005682.176    92634348.29607        47.950    23005683.170    91456795.48008        50.700
C02  39449791.559   205425412.85306        37.900    39449783.415   158847935.93106        41.500
C05  37920204.166   197460453.56606        41.800    37920198.450   152688936.62207        42.950
C06  39876978.080   207649886.26706        39.200    39876972.023   160568051.52906        40.200
C09  39909299.940   207818202.19306        39.150    39909297.691   160698209.03206        41.050
C13  39357326.418   204943930.78706        40.600    39357327.892   158475647.16706        39.800
C16  39574580.811   206075231.91706        41.900    39574579.607   159350436.71406        39.400
J01  43954990.497   230985035.91306        39.400    43954988.847   179988329.53606        41.000    43954991.621   172488828.22106        41.750
S23  37495742.718   197041457.82207        47.550
S36  38121696.558   200330859.91007        47.100
